{
    "type": "FeatureCollection",
    "features": [
        {
            "type": "Feature",
            "geometry": {
                "type": "Point",
                "coordinates": [
                    120.222334,
                    23.739171
                ]
            },
            "properties": {
                "name": "GPS站_雲林縣",
                "location": "新興國小",
                "monitor": "GPS"
            }
        },
        {
            "type": "Feature",
            "geometry": {
                "type": "Point",
                "coordinates": [
                    120.389824,
                    23.687999
                ]
            },
            "properties": {
                "name": "GPS站_雲林縣",
                "location": "土庫國中",
                "monitor": "GPS"
            }
        },
        {
            "type": "Feature",
            "geometry": {
                "type": "Point",
                "coordinates": [
                    120.334288,
                    23.626621
                ]
            },
            "properties": {
                "name": "GPS站_雲林縣",
                "location": "客厝國小",
                "monitor": "GPS"
            }
        },
        {
            "type": "Feature",
            "geometry": {
                "type": "Point",
                "coordinates": [
                    120.402484,
                    23.741415
                ]
            },
            "properties": {
                "name": "GPS站_雲林縣",
                "location": "光復國小",
                "monitor": "GPS"
            }
        },
        {
            "type": "Feature",
            "geometry": {
                "type": "Point",
                "coordinates": [
                    120.347768,
                    23.686583
                ]
            },
            "properties": {
                "name": "GPS站_雲林縣",
                "location": "宏崙國小",
                "monitor": "GPS"
            }
        },
        {
            "type": "Feature",
            "geometry": {
                "type": "Point",
                "coordinates": [
                    120.427642,
                    23.73307
                ]
            },
            "properties": {
                "name": "GPS站_雲林縣",
                "location": "中科虎尾",
                "monitor": "GPS"
            }
        },
        {
            "type": "Feature",
            "geometry": {
                "type": "Point",
                "coordinates": [
                    120.199907,
                    23.652639
                ]
            },
            "properties": {
                "name": "GPS站_雲林縣",
                "location": "明德國小",
                "monitor": "GPS"
            }
        },
        {
            "type": "Feature",
            "geometry": {
                "type": "Point",
                "coordinates": [
                    120.447899,
                    23.6738
                ]
            },
            "properties": {
                "name": "GPS站_雲林縣",
                "location": "斗南",
                "monitor": "GPS"
            }
        },
        {
            "type": "Feature",
            "geometry": {
                "type": "Point",
                "coordinates": [
                    120.419502,
                    23.797501
                ]
            },
            "properties": {
                "name": "GPS站_雲林縣",
                "location": "二崙",
                "monitor": "GPS"
            }
        },
        {
            "type": "Feature",
            "geometry": {
                "type": "Point",
                "coordinates": [
                    120.588699,
                    23.6458
                ]
            },
            "properties": {
                "name": "GPS站_雲林縣",
                "location": "古坑",
                "monitor": "GPS"
            }
        },
        {
            "type": "Feature",
            "geometry": {
                "type": "Point",
                "coordinates": [
                    120.286598,
                    23.729401
                ]
            },
            "properties": {
                "name": "GPS站_雲林縣",
                "location": "虎尾",
                "monitor": "GPS"
            }
        },
        {
            "type": "Feature",
            "geometry": {
                "type": "Point",
                "coordinates": [
                    120.189,
                    23.7203
                ]
            },
            "properties": {
                "name": "GPS站_雲林縣",
                "location": "台西",
                "monitor": "GPS"
            }
        },
        {
            "type": "Feature",
            "geometry": {
                "type": "Point",
                "coordinates": [
                    120.305,
                    23.5799
                ]
            },
            "properties": {
                "name": "GPS站_雲林縣",
                "location": "北港",
                "monitor": "GPS"
            }
        },
        {
            "type": "Feature",
            "geometry": {
                "type": "Point",
                "coordinates": [
                    120.312233,
                    23.791166
                ]
            },
            "properties": {
                "name": "GPS站_雲林縣",
                "location": "豐榮國小",
                "monitor": "GPS"
            }
        },
        {
            "type": "Feature",
            "geometry": {
                "type": "Point",
                "coordinates": [
                    120.247162,
                    23.57318
                ]
            },
            "properties": {
                "name": "GPS站_雲林縣",
                "location": "水燦林國小",
                "monitor": "GPS"
            }
        },
        {
            "type": "Feature",
            "geometry": {
                "type": "Point",
                "coordinates": [
                    120.193996,
                    23.546254
                ]
            },
            "properties": {
                "name": "GPS站_雲林縣",
                "location": "宜梧國中",
                "monitor": "GPS"
            }
        },
        {
            "type": "Feature",
            "geometry": {
                "type": "Point",
                "coordinates": [
                    120.592155,
                    23.757451
                ]
            },
            "properties": {
                "name": "GPS站_雲林縣",
                "location": "林內國中",
                "monitor": "GPS"
            }
        },
        {
            "type": "Feature",
            "geometry": {
                "type": "Point",
                "coordinates": [
                    120.349786,
                    23.658718
                ]
            },
            "properties": {
                "name": "GPS站_雲林縣",
                "location": "秀潭國小",
                "monitor": "GPS"
            }
        },
        {
            "type": "Feature",
            "geometry": {
                "type": "Point",
                "coordinates": [
                    120.308878,
                    23.653347
                ]
            },
            "properties": {
                "name": "GPS站_雲林縣",
                "location": "元長國小",
                "monitor": "GPS"
            }
        },
        {
            "type": "Feature",
            "geometry": {
                "type": "Point",
                "coordinates": [
                    120.24906,
                    23.7039
                ]
            },
            "properties": {
                "name": "GPS站_雲林縣",
                "location": "安南國小",
                "monitor": "GPS"
            }
        },
        {
            "type": "Feature",
            "geometry": {
                "type": "Point",
                "coordinates": [
                    120.21842,
                    23.61198
                ]
            },
            "properties": {
                "name": "GPS站_雲林縣",
                "location": "南光國小",
                "monitor": "GPS"
            }
        },
        {
            "type": "Feature",
            "geometry": {
                "type": "Point",
                "coordinates": [
                    120.30666,
                    23.72275
                ]
            },
            "properties": {
                "name": "GPS站_雲林縣",
                "location": "龍巖國小",
                "monitor": "GPS"
            }
        },
        {
            "type": "Feature",
            "geometry": {
                "type": "Point",
                "coordinates": [
                    120.407225,
                    23.709355
                ]
            },
            "properties": {
                "name": "GPS站_雲林縣",
                "location": "拯民國小",
                "monitor": "GPS"
            }
        },
        {
            "type": "Feature",
            "geometry": {
                "type": "Point",
                "coordinates": [
                    120.31148,
                    23.678139
                ]
            },
            "properties": {
                "name": "GPS站_雲林縣",
                "location": "山內國小",
                "monitor": "GPS"
            }
        },
        {
            "type": "Feature",
            "geometry": {
                "type": "Point",
                "coordinates": [
                    120.400012,
                    23.633943
                ]
            },
            "properties": {
                "name": "GPS站_雲林縣",
                "location": "舊庄國小",
                "monitor": "GPS"
            }
        },
        {
            "type": "Feature",
            "properties": {
                "name": "GPS站_雲林縣",
                "location": "忠孝國小",
                "monitor": "GPS"
            }
        }
    ]
}