[
    {
        "measurement": "Yunlin_0",
        "tags": {
            "name": "地層下陷監測點_雲林縣",
            "location": "豐安國小",
            "monitor": "MW"
        },
        "fields": {
            "lon": 120.233215,
            "lat": 23.789237
        }
    },
    {
        "measurement": "Yunlin_1",
        "tags": {
            "name": "地層下陷監測點_雲林縣",
            "location": "海豐分校",
            "monitor": "MW"
        },
        "fields": {
            "lon": 120.226406,
            "lat": 23.764337
        }
    },
    {
        "measurement": "Yunlin_2",
        "tags": {
            "name": "地層下陷監測點_雲林縣",
            "location": "崙豐國小(舊)",
            "monitor": "MW"
        },
        "fields": {
            "lon": 120.209922,
            "lat": 23.719269
        }
    },
    {
        "measurement": "Yunlin_3",
        "tags": {
            "name": "地層下陷監測點_雲林縣",
            "location": "新興國小",
            "monitor": "MW"
        },
        "fields": {
            "lon": 120.222347,
            "lat": 23.739179
        }
    },
    {
        "measurement": "Yunlin_4",
        "tags": {
            "name": "地層下陷監測點_雲林縣",
            "location": "建陽國小",
            "monitor": "MW"
        },
        "fields": {
            "lon": 120.152257,
            "lat": 23.63408
        }
    },
    {
        "measurement": "Yunlin_5",
        "tags": {
            "name": "地層下陷監測點_雲林縣",
            "location": "東光國小",
            "monitor": "MW"
        },
        "fields": {
            "lon": 120.272477,
            "lat": 23.652731
        }
    },
    {
        "measurement": "Yunlin_6",
        "tags": {
            "name": "地層下陷監測點_雲林縣",
            "location": "金湖國小(舊)",
            "monitor": "MW"
        },
        "fields": {
            "lon": 120.153549,
            "lat": 23.573247
        }
    },
    {
        "measurement": "Yunlin_7",
        "tags": {
            "name": "地層下陷監測點_雲林縣",
            "location": "宜梧國中",
            "monitor": "MW"
        },
        "fields": {
            "lon": 120.19528,
            "lat": 23.545974
        }
    },
    {
        "measurement": "Yunlin_8",
        "tags": {
            "name": "地層下陷監測點_雲林縣",
            "location": "水燦林國小",
            "monitor": "MW"
        },
        "fields": {
            "lon": 120.246505,
            "lat": 23.574971
        }
    },
    {
        "measurement": "Yunlin_9",
        "tags": {
            "name": "地層下陷監測點_雲林縣",
            "location": "二崙國小",
            "monitor": "MW"
        },
        "fields": {
            "lon": 120.415511,
            "lat": 23.771723
        }
    },
    {
        "measurement": "Yunlin_10",
        "tags": {
            "name": "地層下陷監測點_雲林縣",
            "location": "豐榮國小",
            "monitor": "MW"
        },
        "fields": {
            "lon": 120.310981,
            "lat": 23.790706
        }
    },
    {
        "measurement": "Yunlin_11",
        "tags": {
            "name": "地層下陷監測點_雲林縣",
            "location": "元長國小",
            "monitor": "MW"
        },
        "fields": {
            "lon": 120.308761,
            "lat": 23.65334
        }
    },
    {
        "measurement": "Yunlin_12",
        "tags": {
            "name": "地層下陷監測點_雲林縣",
            "location": "客厝國小",
            "monitor": "MW"
        },
        "fields": {
            "lon": 120.334284,
            "lat": 23.626615
        }
    },
    {
        "measurement": "Yunlin_13",
        "tags": {
            "name": "地層下陷監測點_雲林縣",
            "location": "內寮派駐站",
            "monitor": "MW"
        },
        "fields": {
            "lon": 120.354634,
            "lat": 23.607658
        }
    },
    {
        "measurement": "Yunlin_14",
        "tags": {
            "name": "地層下陷監測點_雲林縣",
            "location": "土庫國中",
            "monitor": "MW"
        },
        "fields": {
            "lon": 120.389832,
            "lat": 23.688056
        }
    },
    {
        "measurement": "Yunlin_15",
        "tags": {
            "name": "地層下陷監測點_雲林縣",
            "location": "秀潭國小",
            "monitor": "MW"
        },
        "fields": {
            "lon": 120.34958,
            "lat": 23.658871
        }
    },
    {
        "measurement": "Yunlin_16",
        "tags": {
            "name": "地層下陷監測點_雲林縣",
            "location": "宏崙國小",
            "monitor": "MW"
        },
        "fields": {
            "lon": 120.347845,
            "lat": 23.686566
        }
    },
    {
        "measurement": "Yunlin_17",
        "tags": {
            "name": "地層下陷監測點_雲林縣",
            "location": "虎尾國小",
            "monitor": "MW"
        },
        "fields": {
            "lon": 120.431572,
            "lat": 23.715258
        }
    },
    {
        "measurement": "Yunlin_18",
        "tags": {
            "name": "地層下陷監測點_雲林縣",
            "location": "光復國小",
            "monitor": "MW"
        },
        "fields": {
            "lon": 120.402453,
            "lat": 23.741352
        }
    },
    {
        "measurement": "Yunlin_19",
        "tags": {
            "name": "地層下陷監測點_雲林縣",
            "location": "拯民國小",
            "monitor": "MW"
        },
        "fields": {
            "lon": 120.407374,
            "lat": 23.70947
        }
    },
    {
        "measurement": "Yunlin_20",
        "tags": {
            "name": "地層下陷監測點_雲林縣",
            "location": "龍巖國小",
            "monitor": "MW"
        },
        "fields": {
            "lon": 120.306091,
            "lat": 23.722737
        }
    },
    {
        "measurement": "Yunlin_21",
        "tags": {
            "name": "地層下陷監測點_雲林縣",
            "location": "鎮南國小",
            "monitor": "MW"
        },
        "fields": {
            "lon": 120.538508,
            "lat": 23.698584
        }
    },
    {
        "measurement": "Yunlin_22",
        "tags": {
            "name": "地層下陷監測點_雲林縣",
            "location": "嘉興國小",
            "monitor": "MW"
        },
        "fields": {
            "lon": 120.459641,
            "lat": 23.647997
        }
    },
    {
        "measurement": "Yunlin_23",
        "tags": {
            "name": "地層下陷監測點_雲林縣",
            "location": "北辰國小",
            "monitor": "MW"
        },
        "fields": {
            "lon": 120.303054,
            "lat": 23.575976
        }
    },
    {
        "measurement": "Yunlin_24",
        "tags": {
            "name": "地層下陷監測點_雲林縣",
            "location": "崙豐國小",
            "monitor": "MW"
        },
        "fields": {
            "lon": 120.20842,
            "lat": 23.721058
        }
    },
    {
        "measurement": "Yunlin_25",
        "tags": {
            "name": "地層下陷監測點_雲林縣",
            "location": "安南國小",
            "monitor": "MW"
        },
        "fields": {
            "lon": 120.249051,
            "lat": 23.703897
        }
    },
    {
        "measurement": "Yunlin_26",
        "tags": {
            "name": "地層下陷監測點_雲林縣",
            "location": "南光國小",
            "monitor": "MW"
        },
        "fields": {
            "lon": 120.218425,
            "lat": 23.61198
        }
    },
    {
        "measurement": "Yunlin_27",
        "tags": {
            "name": "地層下陷監測點_雲林縣",
            "location": "金湖國小",
            "monitor": "MW"
        },
        "fields": {
            "lon": 120.153225,
            "lat": 23.573399
        }
    }
]