{"type":"FeatureCollection","features":[{"type":"Feature","geometry":{"type":"Point","coordinates":[120.249070000263,23.70389999961472]},"properties":{"OBJECTID":31,"測站名":"ANES","E":173423.897173,"N":2622433.26775,"h":26.7782,"站名":"安南國小","縣市":"雲林縣","鄉鎮":"東勢鄉","架設單位":"經濟部水利署","單位代碼":"WRA","EPSG3826":[173423.89719999954,2622433.2676999997],"EPSG":[13386065.240793986,2717368.3212313787]}},{"type":"Feature","geometry":{"type":"Point","coordinates":[120.28913999991823,23.86033999987515]},"properties":{"OBJECTID":60,"測站名":"CHSG","E":177596.871308,"N":2639738.00982,"h":25,"站名":"西港國小","縣市":"彰化縣","鄉鎮":"大城鄉","架設單位":"經濟部水利署","單位代碼":"WRA","EPSG3826":[177596.87129999977,2639738.0098],"EPSG":[13390525.812751692,2736399.141434487]}},{"type":"Feature","geometry":{"type":"Point","coordinates":[120.55729999982336,24.066050000029744]},"properties":{"OBJECTID":63,"測站名":"CHUA","E":204981.710818,"N":2662408.9284,"h":109,"站名":"彰師大","縣市":"彰化縣","鄉鎮":"彰化市","架設單位":"交通部中央氣象局","單位代碼":"CWB","EPSG3826":[204981.71079999954,2662408.9284000006],"EPSG":[13420377.247392256,2761458.6573454104]}},{"type":"Feature","geometry":{"type":"Point","coordinates":[120.41954999968293,23.79758999975252]},"properties":{"OBJECTID":110,"測站名":"ERLN","E":190851.401532,"N":2632727.98843,"h":44,"站名":"二崙","縣市":"雲林縣","鄉鎮":"二崙鄉","架設單位":"交通部中央氣象局","單位代碼":"CWB","EPSG3826":[190851.4014999997,2632727.988399999],"EPSG":[13405042.98751985,2728762.8952420126]}},{"type":"Feature","geometry":{"type":"Point","coordinates":[120.31222999972053,23.791130000188726]},"properties":{"OBJECTID":125,"測站名":"FRES","E":179911.562128,"N":2632061.38699,"h":32.4221,"站名":"豐榮國小","縣市":"雲林縣","鄉鎮":"崙背鄉","架設單位":"經濟部水利署","單位代碼":"WRA","EPSG3826":[179911.56209999975,2632061.387],"EPSG":[13393096.179772101,2727976.9669969375]}},{"type":"Feature","geometry":{"type":"Point","coordinates":[120.32017000037767,23.922309999902776]},"properties":{"OBJECTID":128,"測站名":"FUNY","E":180790.451162,"N":2646585.72352,"h":24,"站名":"芳苑","縣市":"彰化縣","鄉鎮":"芳苑鄉","架設單位":"交通部中央氣象局","單位代碼":"CWB","EPSG3826":[180790.4512,2646585.7235000003],"EPSG":[13393980.056602154,2743944.0982127413]}},{"type":"Feature","geometry":{"type":"Point","coordinates":[120.47470000036009,23.961240000469857]},"properties":{"OBJECTID":132,"測站名":"G811","E":196538.637263,"N":2650830.10696,"h":48.7264,"站名":"溪湖","縣市":"彰化縣","鄉鎮":"溪湖鎮","架設單位":"彰化縣政府","單位代碼":"CHG","EPSG3826":[196538.6372999996,2650830.107000001],"EPSG":[13411182.25751248,2748685.745469651]}},{"type":"Feature","geometry":{"type":"Point","coordinates":[120.40248000003969,23.741409999923057]},"properties":{"OBJECTID":135,"測站名":"GFES","E":189085.750896,"N":2626513.38582,"h":45,"站名":"光復國小","縣市":"雲林縣","鄉鎮":"虎尾鎮","架設單位":"經濟部水利署","單位代碼":"WRA","EPSG3826":[189085.75090000033,2626513.3858000003],"EPSG":[13403142.763851725,2721929.3019676115]}},{"type":"Feature","geometry":{"type":"Point","coordinates":[120.61750000000951,23.623660000338084]},"properties":{"OBJECTID":137,"測站名":"GKFM","E":210971.307299,"N":2613397.76907,"h":398.9327,"站名":"","縣市":"雲林縣","鄉鎮":"古坑鄉","架設單位":"其他單位","單位代碼":"--","EPSG3826":[210971.30730000045,2613397.769099999],"EPSG":[13427078.680758733,2707616.038329423]}},{"type":"Feature","geometry":{"type":"Point","coordinates":[120.60776000012521,23.61215000034259]},"properties":{"OBJECTID":138,"測站名":"GLES","E":209973.972087,"N":2612125.80477,"h":420.8292,"站名":"","縣市":"雲林縣","鄉鎮":"古坑鄉","架設單位":"其他單位","單位代碼":"--","EPSG3826":[209973.9720999999,2612125.8048],"EPSG":[13425994.428931287,2706217.615719285]}},{"type":"Feature","geometry":{"type":"Point","coordinates":[120.51236999967624,24.097299999845532]},"properties":{"OBJECTID":160,"測站名":"GS21","E":200424.714833,"N":2665885.02472,"h":37,"站名":"大嘉國小","縣市":"彰化縣","鄉鎮":"和美鎮","架設單位":"經濟部中央地質調查所","單位代碼":"CGS","EPSG3826":[200424.7148000002,2665885.024700001],"EPSG":[13415375.662654536,2765269.028132212]}},{"type":"Feature","geometry":{"type":"Point","coordinates":[120.6062700004659,24.090870000231202]},"properties":{"OBJECTID":161,"測站名":"GS22","E":209969.246853,"N":2665142.92128,"h":45,"站名":"快官交流道","縣市":"彰化縣","鄉鎮":"彰化市","架設單位":"經濟部中央地質調查所","單位代碼":"CGS","EPSG3826":[209969.24689999968,2665142.9212999996],"EPSG":[13425828.56292793,2764484.9303718344]}},{"type":"Feature","geometry":{"type":"Point","coordinates":[120.64767999981923,24.09459000018653]},"properties":{"OBJECTID":162,"測站名":"GS23","E":214180.497018,"N":2665543.72209,"h":52,"站名":"五光國小","縣市":"台中市","鄉鎮":"烏日區","架設單位":"經濟部中央地質調查所","單位代碼":"CGS","EPSG3826":[214180.49700000044,2665543.722100001],"EPSG":[13430438.302969692,2764938.55602659]}},{"type":"Feature","geometry":{"type":"Point","coordinates":[120.52607999960111,24.025230000212776]},"properties":{"OBJECTID":163,"測站名":"GS24","E":201791.656041,"N":2657898.45528,"h":34,"站名":"文祥國小","縣市":"彰化縣","鄉鎮":"花壇鄉","架設單位":"經濟部中央地質調查所","單位代碼":"CGS","EPSG3826":[201791.65600000042,2657898.4552999996],"EPSG":[13416901.852864949,2756482.796233279]}},{"type":"Feature","geometry":{"type":"Point","coordinates":[120.64022000023972,23.98651000023388]},"properties":{"OBJECTID":164,"測站名":"GS25","E":213391.430376,"N":2653575.87288,"h":91,"站名":"寶山國小","縣市":"彰化縣","鄉鎮":"芬園鄉","架設單位":"經濟部中央地質調查所","單位代碼":"CGS","EPSG3826":[213391.43039999995,2653575.8729],"EPSG":[13429607.859615183,2751764.380306555]}},{"type":"Feature","geometry":{"type":"Point","coordinates":[120.57787000023382,23.82474999969271]},"properties":{"OBJECTID":166,"測站名":"GS27","E":206993.594676,"N":2635678.90494,"h":77,"站名":"彰化農場","縣市":"彰化縣","鄉鎮":"溪州鄉","架設單位":"經濟部中央地質調查所","單位代碼":"CGS","EPSG3826":[206993.59470000025,2635678.9048999995],"EPSG":[13422667.089363566,2732067.628289663]}},{"type":"Feature","geometry":{"type":"Point","coordinates":[120.52958999954026,24.184410000052456]},"properties":{"OBJECTID":178,"測站名":"GS39","E":202207.822047,"N":2675526.6277,"h":37,"站名":"龍井國小","縣市":"台中市","鄉鎮":"龍井區","架設單位":"經濟部中央地質調查所","單位代碼":"CGS","EPSG3826":[202207.8219999997,2675526.627699999],"EPSG":[13417292.58427086,2775895.425438041]}},{"type":"Feature","geometry":{"type":"Point","coordinates":[120.48737000011745,23.606350000196404]},"properties":{"OBJECTID":207,"測站名":"GS68","E":197686.306588,"N":2611522.34428,"h":67.6221,"站名":"三和國小","縣市":"嘉義縣","鄉鎮":"大林鎮","架設單位":"經濟部中央地質調查所","單位代碼":"CGS","EPSG3826":[197686.30659999978,2611522.3443],"EPSG":[13412592.67543382,2705512.9835974155]}},{"type":"Feature","geometry":{"type":"Point","coordinates":[120.58877999981458,23.645860000309188]},"properties":{"OBJECTID":237,"測站名":"GUKN","E":208047.880119,"N":2615864.41667,"h":192,"站名":"古坑","縣市":"雲林縣","鄉鎮":"古坑鄉","架設單位":"交通部中央氣象局","單位代碼":"CWB","EPSG3826":[208047.88009999972,2615864.4167],"EPSG":[13423881.58496145,2710313.6036928534]}},{"type":"Feature","geometry":{"type":"Point","coordinates":[120.34777000003481,23.68657999961603]},"properties":{"OBJECTID":257,"測站名":"HLES","E":183480.375097,"N":2620465.56895,"h":37.2044,"站名":"宏崙國小","縣市":"雲林縣","鄉鎮":"土庫鎮","架設單位":"經濟部水利署","單位代碼":"WRA","EPSG3826":[183480.37509999983,2620465.5689000003],"EPSG":[13397052.47450988,2715262.760405282]}},{"type":"Feature","geometry":{"type":"Point","coordinates":[120.4791399998986,23.948360000023506]},"properties":{"OBJECTID":260,"測站名":"HNES","E":196985.25271,"N":2649401.9769,"h":42,"站名":"湖南國小","縣市":"彰化縣","鄉鎮":"溪湖鎮","架設單位":"經濟部水利署","單位代碼":"WRA","EPSG3826":[196985.25270000007,2649401.9769],"EPSG":[13411676.51600023,2747116.8119199434]}},{"type":"Feature","geometry":{"type":"Point","coordinates":[120.2866200004328,23.729400000179275]},"properties":{"OBJECTID":277,"測站名":"HUWE","E":177267.341156,"N":2625237.69259,"h":28,"站名":"虎尾","縣市":"雲林縣","鄉鎮":"東勢鄉","架設單位":"交通部中央氣象局","單位代碼":"CWB","EPSG3826":[177267.34119999968,2625237.6926000006],"EPSG":[13390245.287692176,2720468.818515511]}},{"type":"Feature","geometry":{"type":"Point","coordinates":[120.57672000011372,23.61525999987813]},"properties":{"OBJECTID":284,"測站名":"JHSN","E":206807.484688,"N":2612479.24692,"h":275.9278,"站名":"劍湖山","縣市":"雲林縣","鄉鎮":"古坑鄉","架設單位":"其他單位","單位代碼":"--","EPSG3826":[206807.4846999999,2612479.2468999997],"EPSG":[13422539.071935784,2706595.4570985427]}},{"type":"Feature","geometry":{"type":"Point","coordinates":[120.40000999991571,23.633949999673575]},"properties":{"OBJECTID":286,"測站名":"JJES","E":188783.870809,"N":2614613.59454,"h":43.1612,"站名":"舊庄國小","縣市":"雲林縣","鄉鎮":"大埤鄉","架設單位":"經濟部水利署","單位代碼":"WRA","EPSG3826":[188783.87079999968,2614613.5944999997],"EPSG":[13402867.804695662,2708866.3393807625]}},{"type":"Feature","geometry":{"type":"Point","coordinates":[120.40721999990961,23.709360000151523]},"properties":{"OBJECTID":288,"測站名":"JMES","E":189554.206609,"N":2622961.91609,"h":44.3772,"站名":"拯民國小","縣市":"雲林縣","鄉鎮":"虎尾鎮","架設單位":"經濟部水利署","單位代碼":"WRA","EPSG3826":[189554.20660000015,2622961.916099999],"EPSG":[13403670.418223603,2718032.141467768]}},{"type":"Feature","geometry":{"type":"Point","coordinates":[120.33427999953831,23.626609999835665]},"properties":{"OBJECTID":315,"測站名":"KTES","E":182073.550047,"N":2613830.40982,"h":36,"站名":"客厝國小","縣市":"雲林縣","鄉鎮":"元長鄉","架設單位":"經濟部水利署","單位代碼":"WRA","EPSG3826":[182073.5499999998,2613830.4098000005],"EPSG":[13395550.774523808,2707974.4721833714]}},{"type":"Feature","geometry":{"type":"Point","coordinates":[120.59214999961425,23.757450000110435]},"properties":{"OBJECTID":341,"測站名":"LNJS","E":208427.048639,"N":2628221.43969,"h":92,"站名":"林內國中","縣市":"雲林縣","鄉鎮":"林內鄉","架設單位":"經濟部水利署","單位代碼":"WRA","EPSG3826":[208427.04860000033,2628221.4397],"EPSG":[13424256.731623122,2723880.0661457228]}},{"type":"Feature","geometry":{"type":"Point","coordinates":[120.43513000008399,24.060009999680318]},"properties":{"OBJECTID":354,"測站名":"LUKN","E":192555.278292,"N":2661784.53574,"h":24,"站名":"鹿港","縣市":"彰化縣","鄉鎮":"鹿港鎮","架設單位":"交通部中央氣象局","單位代碼":"CWB","EPSG3826":[192555.27830000035,2661784.535700001],"EPSG":[13406777.345231054,2760722.2959032515]}},{"type":"Feature","geometry":{"type":"Point","coordinates":[120.30665999956548,23.722750000200207]},"properties":{"OBJECTID":356,"測站名":"LYES","E":179307.002144,"N":2624491.11928,"h":35.0876,"站名":"龍巖國小","縣市":"雲林縣","鄉鎮":"褒忠鄉","架設單位":"經濟部水利署","單位代碼":"WRA","EPSG3826":[179307.00210000016,2624491.1193000004],"EPSG":[13392476.130191123,2719660.199041265]}},{"type":"Feature","geometry":{"type":"Point","coordinates":[120.19989999958037,23.65259999995769]},"properties":{"OBJECTID":361,"測站名":"MDES","E":168377.705743,"N":2616779.08481,"h":28.3215,"站名":"明德國小","縣市":"雲林縣","鄉鎮":"四湖鄉","架設單位":"經濟部水利署","單位代碼":"WRA","EPSG3826":[168377.70569999982,2616779.0847999994],"EPSG":[13380591.66135569,2711132.6847598134]}},{"type":"Feature","geometry":{"type":"Point","coordinates":[120.21841999975814,23.61199000048766]},"properties":{"OBJECTID":390,"測站名":"NGES","E":170242.511524,"N":2612271.10845,"h":23.0893,"站名":"南光國小","縣市":"雲林縣","鄉鎮":"四湖鄉","架設單位":"經濟部水利署","單位代碼":"WRA","EPSG3826":[170242.51150000002,2612271.1085],"EPSG":[13382653.298344972,2706198.177191716]}},{"type":"Feature","geometry":{"type":"Point","coordinates":[120.42764000022557,23.733020000358753]},"properties":{"OBJECTID":400,"測站名":"NTUH","E":191647.012977,"N":2625573.67417,"h":48.2878,"站名":"中科虎尾","縣市":"雲林縣","鄉鎮":"虎尾鎮","架設單位":"經濟部水利署","單位代碼":"WRA","EPSG3826":[191647.01300000027,2625573.6742000002],"EPSG":[13405943.562260773,2720909.0167063475]}},{"type":"Feature","geometry":{"type":"Point","coordinates":[120.63603000017216,23.915679999770813]},"properties":{"OBJECTID":401,"測站名":"PAKU","E":212944.853583,"N":2645732.69053,"h":432,"站名":"八卦山","縣市":"南投縣","鄉鎮":"南投市","架設單位":"交通部中央氣象局","單位代碼":"CWB","EPSG3826":[212944.85360000003,2645732.6905000005],"EPSG":[13429141.430941239,2743136.711250418]}},{"type":"Feature","geometry":{"type":"Point","coordinates":[120.6405599995339,23.756060000263233]},"properties":{"OBJECTID":414,"測站名":"PINT","E":213361.232947,"N":2628054.19258,"h":328,"站名":"坪頂","縣市":"雲林縣","鄉鎮":"林內鄉","架設單位":"中央研究院地球科學研究所","單位代碼":"IES","EPSG3826":[213361.23290000018,2628054.1926000006],"EPSG":[13429645.708163483,2723711.006642819]}},{"type":"Feature","geometry":{"type":"Point","coordinates":[120.30550000021258,23.57988999998709]},"properties":{"OBJECTID":415,"測站名":"PKGM","E":179111.785878,"N":2608670.28031,"h":42,"站名":"北港","縣市":"雲林縣","鄉鎮":"北港鎮","架設單位":"內政部地政司","單位代碼":"MOI","EPSG3826":[179111.78589999955,2608670.2803000007],"EPSG":[13392346.999653837,2702298.798651475]}},{"type":"Feature","geometry":{"type":"Point","coordinates":[120.52576999958546,23.970190000371772]},"properties":{"OBJECTID":425,"測站名":"PUS2","E":201739.601842,"N":2651802.89987,"h":46.9285,"站名":"鳳霞國小","縣市":"彰化縣","鄉鎮":"埔心鄉","架設單位":"交通部中央氣象局","單位代碼":"CWB","EPSG3826":[201739.6018000003,2651802.8999000005],"EPSG":[13416867.343821062,2749776.0516370335]}},{"type":"Feature","geometry":{"type":"Point","coordinates":[120.49815000009605,23.853750000110715]},"properties":{"OBJECTID":472,"測站名":"SJES","E":198882.99899,"N":2638917.04289,"h":56.4245,"站名":"溪州國小","縣市":"彰化縣","鄉鎮":"溪州鄉","架設單位":"經濟部水利署","單位代碼":"WRA","EPSG3826":[198882.99899999984,2638917.0429],"EPSG":[13413792.699542189,2735597.0098348167]}},{"type":"Feature","geometry":{"type":"Point","coordinates":[120.24716000000551,23.5731599999716]},"properties":{"OBJECTID":474,"測站名":"SLES","E":173152.828899,"N":2607955.03841,"h":27.4044,"站名":"水燦林國小","縣市":"雲林縣","鄉鎮":"水林鄉","架設單位":"經濟部水利署","單位代碼":"WRA","EPSG3826":[173152.82890000008,2607955.0384],"EPSG":[13385852.620537907,2701481.3863600306]}},{"type":"Feature","geometry":{"type":"Point","coordinates":[120.31148999964465,23.67814000033004]},"properties":{"OBJECTID":477,"測站名":"SNES","E":179775.620836,"N":2619548.24877,"h":35.9871,"站名":"山內國小","縣市":"雲林縣","鄉鎮":"元長鄉","架設單位":"經濟部水利署","單位代碼":"WRA","EPSG3826":[179775.62079999968,2619548.2488],"EPSG":[13393013.803340469,2714236.8262720234]}},{"type":"Feature","geometry":{"type":"Point","coordinates":[120.39437000010632,23.937949999824042]},"properties":{"OBJECTID":482,"測站名":"SSES","E":188351.951389,"N":2648283.49523,"h":36.6011,"站名":"新生國小","縣市":"彰化縣","鄉鎮":"二林鎮","架設單位":"經濟部水利署","單位代碼":"WRA","EPSG3826":[188351.95139999967,2648283.4952000007],"EPSG":[13402239.962788807,2745848.867536786]}},{"type":"Feature","geometry":{"type":"Point","coordinates":[120.34979000036154,23.658700000122522]},"properties":{"OBJECTID":486,"測站名":"STES","E":183672.327563,"N":2617376.99329,"h":38.7932,"站名":"秀潭國小","縣市":"雲林縣","鄉鎮":"土庫鎮","架設單位":"經濟部水利署","單位代碼":"WRA","EPSG3826":[183672.32760000043,2617376.9933],"EPSG":[13397277.339917654,2711874.0260225427]}},{"type":"Feature","geometry":{"type":"Point","coordinates":[120.1888100003071,23.720269999915335]},"properties":{"OBJECTID":516,"測站名":"TASI","E":167288.935869,"N":2624279.93422,"h":38,"站名":"臺西","縣市":"雲林縣","鄉鎮":"臺西鄉","架設單位":"內政部國土測繪中心","單位代碼":"NLS","EPSG3826":[167288.93589999992,2624279.9342],"EPSG":[13379357.128283693,2719358.6492192545]}},{"type":"Feature","geometry":{"type":"Point","coordinates":[120.27803999981309,23.508910000135632]},"properties":{"OBJECTID":528,"測站名":"TCBS","E":176269.251519,"N":2600823.34439,"h":26.9055,"站名":"蒜頭國小潭墘分校","縣市":"嘉義縣","鄉鎮":"六腳鄉","架設單位":"其他單位","單位代碼":"--","EPSG3826":[176269.25150000025,2600823.3444],"EPSG":[13389290.166392183,2693679.8171849507]}},{"type":"Feature","geometry":{"type":"Point","coordinates":[120.3898200004573,23.687989999666158]},"properties":{"OBJECTID":535,"測站名":"TKJS","E":187769.752454,"N":2620602.74064,"h":41,"站名":"土庫國中","縣市":"雲林縣","鄉鎮":"土庫鎮","架設單位":"經濟部水利署","單位代碼":"WRA","EPSG3826":[187769.7525000004,2620602.740599999],"EPSG":[13401733.45914477,2715434.161097765]}},{"type":"Feature","geometry":{"type":"Point","coordinates":[120.49823999965464,24.11716000051777]},"properties":{"OBJECTID":555,"測站名":"VR01","E":198996.020735,"N":2668089.61465,"h":39,"站名":"和美","縣市":"彰化縣","鄉鎮":"和美鎮","架設單位":"內政部國土測繪中心","單位代碼":"NLS","EPSG3826":[198996.02070000023,2668089.6147000007],"EPSG":[13413802.718247224,2767691.0781047847]}},{"type":"Feature","geometry":{"type":"Point","coordinates":[120.37347999966101,23.89992999977173]},"properties":{"OBJECTID":556,"測站名":"VR02","E":186206.799635,"N":2644082.04093,"h":42,"站名":"二林","縣市":"彰化縣","鄉鎮":"二林鎮","架設單位":"內政部國土測繪中心","單位代碼":"NLS","EPSG3826":[186206.79959999956,2644082.0408999994],"EPSG":[13399914.498576565,2741218.876672513]}},{"type":"Feature","geometry":{"type":"Point","coordinates":[120.58151000030114,23.86443000007682]},"properties":{"OBJECTID":557,"測站名":"VR03","E":207377.416369,"N":2640072.2433,"h":77,"站名":"田中","縣市":"彰化縣","鄉鎮":"田中鎮","架設單位":"內政部國土測繪中心","單位代碼":"NLS","EPSG3826":[207377.41640000045,2640072.2433],"EPSG":[13423072.292317547,2736896.994812657]}},{"type":"Feature","geometry":{"type":"Point","coordinates":[120.30888999989311,23.653310000255736]},"properties":{"OBJECTID":587,"測站名":"YCES","E":179497.111011,"N":2616799.66218,"h":31.7519,"站名":"元長國小","縣市":"雲林縣","鄉鎮":"元長鄉","架設單位":"經濟部水利署","單位代碼":"WRA","EPSG3826":[179497.11099999957,2616799.6622],"EPSG":[13392724.372692065,2711218.970277624]}},{"type":"Feature","geometry":{"type":"Point","coordinates":[120.55418999964529,23.626100000360182]},"properties":{"OBJECTID":605,"測站名":"YOKN","E":204512.180736,"N":2613686.69687,"h":144.6221,"站名":"永光國小","縣市":"雲林縣","鄉鎮":"古坑鄉","架設單位":"其他單位","單位代碼":"--","EPSG3826":[204512.18070000038,2613686.696900001],"EPSG":[13420031.043756066,2707912.5051287115]}},{"type":"Feature","geometry":{"type":"Point","coordinates":[120.22232999969688,23.739169999930702]},"properties":{"OBJECTID":607,"測站名":"YSLL","E":170718.302931,"N":2626354.04771,"h":25,"站名":"新興國小","縣市":"雲林縣","鄉鎮":"臺西鄉","架設單位":"經濟部水利署","單位代碼":"WRA","EPSG3826":[170718.30289999954,2626354.047700001],"EPSG":[13383088.557547154,2721656.8951695515]}},{"type":"Feature","geometry":{"type":"Point","coordinates":[120.1939899998976,23.546230000101787]},"properties":{"OBJECTID":612,"測站名":"YWJS","E":167708.42041,"N":2605002.11559,"h":25.1657,"站名":"宜梧國中","縣市":"雲林縣","鄉鎮":"口湖鄉","架設單位":"經濟部水利署","單位代碼":"WRA","EPSG3826":[167708.42040000018,2605002.115599999],"EPSG":[13379933.763200415,2698210.9416896272]}}]}